{"station_id": 213688169, "name": "Benjamin Godard - Victor Hugo", "lat": 48.865983, "lon": 2.275725, "capacity": 35, "stationCode": "16107", "address": "2 Rue Benjamin Godard", "postcode": "75016", "city": "Paris"}
{"station_id": 516709288, "name": "Charonne - Robert et Sonia Delauney", "lat": 48.85590755596891, "lon": 2.3925706744194035, "capacity": 20, "stationCode": "11104", "address": "2 Rue Benjamin Godard", "postcode": "75016", "city": "Paris"}
{"station_id": 36255, "name": "Toudouze - Clauzel", "lat": 48.87929591733507, "lon": 2.3373600840568547, "capacity": 21, "stationCode": "9020", "rental_methods": ["CREDITCARD"], "address": "2 Rue Benjamin Godard", "postcode": "75016", "city": "Paris"}
{"station_id": 37815204, "name": "Mairie du 12\u00e8me", "lat": 48.84085531176338, "lon": 2.3875549435615544, "capacity": 30, "stationCode": "12109", "address": "2 Rue Benjamin Godard", "postcode": "75016", "city": "Paris"}
{"station_id": 100769544, "name": "Harpe - Saint-Germain", "lat": 48.85151881501689, "lon": 2.343670316040516, "capacity": 46, "stationCode": "5001", "rental_methods": ["CREDITCARD"], "address": "2 Rue Benjamin Godard", "postcode": "75016", "city": "Paris"}
